Facility ID,Restaurant Name,Address,Zip Code,Latitude,Longitude,Inspection Date,Process Description,Score
10065891,Starbucks Coffee #13418,1201 BARBARA JORDAN BLVD,78723,30.306354021,-97.709006964,2022-10-18,Routine Inspection,92
12018392,Residence Inn Austin Airport,3201 CASEYBRIDGE CT,78744,30.213553989,-97.698909034,2022-10-26,Routine Inspection,89
11410847,Raku Sushi Restaurant,2222 RIO GRANDE ST,78705,30.286559989,-97.745506967,2023-01-17,Routine Inspection,71
11747511,Bao'd Up,1911 ALDRICH ST,78723,30.298674018,-97.704329024,2023-01-19,Routine Inspection,94
11048159,Casa Linda Taqueria,623 W DITTMAR RD,78745,30.183337983,-97.792032984,2022-03-29,Routine Inspection,100
12392879,PF - Pflugerville Health Care Center,521 S HEATHERWILDE BLVD,78660,30.443056994,-97.642386005,2022-06-17,Routine Inspection,83
12394730,Domino's Pizza,11150 RESEARCH BLVD,78759,30.406755014,-97.74702602,2022-04-27,Routine Inspection,94
2800349,Delta Delta Delta,503 W 27TH ST,78705,30.291635986,-97.742212963,2023-12-06,Routine Inspection,97
12392368,PF - Taco Bell # 30073,1605 W PECAN ST,78660,30.447003991,-97.638373001,2023-10-30,Routine Inspection,93
12185630,Lifetime Nutrition,7517 CAMERON RD,78752,30.329366997,-97.688871034,2023-07-21,Routine Inspection,91
11204859,Dawson Child Inc Child Development Center,3001 S 1ST ST,78704,30.234104991,-97.763629983,2023-08-29,Routine Inspection,100
10193027,Cover 3,2700 W ANDERSON LN,78757,30.359327984,-97.734142029,2021-12-09,Routine Inspection,87
10252628,Jamba Juice,1201 BARBARA JORDAN BLVD,78723,30.306354021,-97.709006964,2022-05-06,Routine Inspection,91
11423173,Popeyes # 305 - Z & H Inc,2919 MONTOPOLIS DR,78741,30.213898989,-97.710661971,2023-08-03,Routine Inspection,96
11130484,Courtesy Shell # 3,616 W WILLIAM CANNON DR,78745,30.197308017,-97.787284971,2021-07-08,Routine Inspection,96
12395220,"Salty Donut, The",2000 S CONGRESS AVE,78704,30.24418599,-97.752139986,2022-11-28,Routine Inspection,88
12395439,Meal Makers,1300 E ANDERSON LN,78752,30.336081991,-97.687923041,2022-05-18,Routine Inspection,97
2801171,Pok-E-Jo's,2121 W PARMER LN,78758,30.415556012,-97.697276994,2023-01-10,Routine Inspection,91
11066752,Taco Bell #30081,7515 N FM 620 RD,78726,30.408100016,-97.850872016,2021-08-12,Routine Inspection,90
2800627,Kathy Caraway Elementary School,11104 OAK VIEW DR,78759,30.419538003,-97.769297994,2021-10-12,Routine Inspection,100
10377371,Jack Allen's Kitchen,7720 W SH,78735,30.246547,-97.8304137,2022-09-12,Routine Inspection,87
11469676,St. Mark United Methodist Church Food Pantry,601 W BRAKER LN,78753,30.379891014,-97.685541994,2022-12-28,Routine Inspection,95
12186439,Dolce Neve,1109 E 5TH ST,78702,30.263500996,-97.731369966,2022-03-29,Routine Inspection,97
12392473,PF - T- Jin China Diner,18816 LIMESTONE COMMERCIAL DR,78660,30.469184979,-97.596230971,2023-08-23,Routine Inspection,71
10884063,Infamous Brewing Co.,4602 WELETKA DR,78734,30.406823997,-97.925960961,2021-03-18,Routine Inspection,98
11242428,La Catedral Del Marisco #3,4118 S IH,78745,30.2026,-97.81261,2023-03-13,Routine Inspection,90
10005841,California Pizza Kitchen,3401 ESPERANZA XING,78758,30.40024898,-97.726650032,2023-10-19,Routine Inspection,86
12397782,Panera Bread #6319,13000 N IH,78753,30.36197,-97.68607,2023-06-21,Routine Inspection,90
2800727,Episcopal Seminary Southwest,606 RATHERVUE PL,78705,30.292330007,-97.73206801,2022-11-16,Routine Inspection,92
12393350,PF - Nearby Coffee Co.,16921 JOE BARBEE DR,78660,30.47034801,-97.665216968,2022-12-28,Routine Inspection,99
11861562,SV - Poke Austin,5601 BRODIE LN,78745,30.226170011,-97.820349987,2023-11-08,Routine Inspection,100
10323192,Del Valle ISD Opportunity Center,5301 ROSS RD,78617,30.175981019,-97.613418986,2023-04-19,Routine Inspection,98
2803532,HEB Grocery #15,9414 N LAMAR BLVD,78753,30.364697012,-97.697961963,2021-08-05,Routine Inspection,98
2803745,Walgreens #05159,7410 MC NEIL DR,78729,30.435101101,-97.769177462,2023-10-25,Routine Inspection,100
11485778,Z'Tejas,1110 W 6TH ST,78703,30.272496999,-97.755755017,2021-04-15,Routine Inspection,84
10076097,"Grove, The",6317 FM 2244 RD,78746,30.296219001,-97.833143034,2021-11-15,Routine Inspection,84
11789420,7 - Eleven Convenience Store #25157B,2620 LAKE AUSTIN BLVD,78703,30.282058991,-97.775606968,2022-05-27,Routine Inspection,91
12392478,PF - Walgreens # 03159,2021 W PECAN ST,78660,30.445338004,-97.647658977,2021-04-08,Routine Inspection,100
11349581,Fiesta Mart - Meat and Seafood #64,5510 S IH,78745,30.2026,-97.81261,2021-05-13,Routine Inspection,89
12396262,Z'Tejas,14900 AVERY RANCH BLVD,78717,30.498117046,-97.777281086,2023-06-13,Routine Inspection,91
10793927,Bluebonnet School of Canyon Creek,10321 BOULDER LN,78726,30.429333011,-97.838624966,2022-05-26,Routine Inspection,100
11499700,Parmer Lane 5 Caffe Macs-Sushi,5505 W PARMER LN,78727,30.434427993,-97.736137005,2022-08-31,Routine Inspection,98
12393353,BC - Tony C's,12800 HILL COUNTRY BLVD,78738,30.309546017,-97.940628034,2022-11-17,Routine Inspection,88
11249373,Midtown Grocery & Cafe,7010 EASY WIND DR,78752,30.339137991,-97.718386984,2021-04-22,Routine Inspection,91
2800663,Texican Cafe,11940 MANCHACA RD,78748,30.145706004,-97.83412204,2022-07-20,Routine Inspection,86
2803525,Circle K #2741302,8205 BRODIE LN,78745,30.201358991,-97.837734976,2021-07-02,Routine Inspection,91
10757844,Circle K Store #2704690,1420 E ANDERSON LN,78753,30.333456989,-97.686723004,2021-07-31,Routine Inspection,98
11119806,LW - Wendy's Old Fashion Hamburgers #122,2404 S FM 620 RD,78738,30.340228057,-97.969205093,2021-10-28,Routine Inspection,97
11924499,Ramos Restaurant #3,14611 BURNET RD,78728,30.450346987,-97.694670976,2022-05-10,Routine Inspection,86
11049895,Dolce Neve,1713 S 1ST ST,78704,30.247612009,-97.755498028,2021-08-19,Routine Inspection,98
2800008,Wooldridge Elementary,1412 NORSEMAN TER,78758,30.364949014,-97.709894021,2023-05-04,Routine Inspection,99
12186536,Wells Branch Leadership Academy,3711 SHORELINE DR,78728,30.456980006,-97.688494016,2023-05-16,Routine Inspection,100
12396049,PF- Accent Food Services - The Boring Company,15709 IMPACT WAY,78660,30.415658984,-97.588537977,2022-12-21,Routine Inspection,100
10008120,LW - Serene Hills Elementary,3301 SERENE HILLS DR,78738,30.345879031,-97.99693702,2021-02-23,Routine Inspection,98
10176495,Chipotle Mexican Grill #501,801 CONGRESS AVE,78701,30.269962982,-97.741634025,2022-05-25,Routine Inspection,100
2801456,Chick-Fil-A,10901 RESEARCH BLVD,78759,30.401104982,-97.744965999,2022-07-20,Routine Inspection,87
12393445,Quick Food Mart,1197 HARGRAVE ST,78702,30.275520017,-97.707495958,2021-09-13,Routine Inspection,91
11452574,El Jacalito,2030 E OLTORF ST,78741,30.230795983,-97.732116961,2021-07-23,Routine Inspection,89
2801190,Canyon Creek,10210 EMBER GLEN DR,78726,30.43704499,-97.824704972,2021-11-04,Routine Inspection,100
12395517,MN - Las Salsas Bar and Grille,109 N BURNET ST,78653,30.341554997,-97.556761008,2023-09-15,Routine Inspection,81
12397550,Kellys Irish Pub,519 W OLTORF ST,78704,30.241351021,-97.758953971,2023-04-12,Routine Inspection,88
11843471,Church's Chicken Store No. 386,1945 W WILLIAM CANNON DR,78745,30.202402999,-97.806297977,2023-03-27,Routine Inspection,87
10964447,South Austin Assisted Living II,4816 CHESNEY RIDGE DR,78749,30.197807998,-97.863731029,2022-03-07,Routine Inspection,95
11763339,La Madeleine # 204,1201 BARBARA JORDAN BLVD,78723,30.306354021,-97.709006964,2023-11-13,Routine Inspection,78
10964761,LW - Firehouse Subs,900 S FM 620 RD,78734,30.373714558,-97.947427767,2022-04-18,Routine Inspection,96
10323177,"Del Valle High School, Ninth Grade Academy",5201 ROSS RD,78617,30.178049653,-97.615441989,2021-09-23,Routine Inspection,97
11577358,Tres Amigos,7535 E US 290 HWY,78723,30.324449437,-97.674398705,2022-08-16,Routine Inspection,83
12392502,Canteen@LCRA Montopolis,3505 MONTOPOLIS DR,78744,30.209182995,-97.709840041,2022-06-13,Routine Inspection,100
11053776,Wayside Schools,6215 MANCHACA RD,78745,30.209748019,-97.803648039,2021-04-28,Routine Inspection,96
2802664,Moonshine Patio Bar & Grill,600 E 3RD ST,78701,30.263921013,-97.737922015,2023-10-16,Routine Inspection,88
12395546,OOB - Austin Daily Press,1300 E ANDERSON LN,78752,30.336081991,-97.687923041,2023-03-29,Routine Inspection,97
10026046,Chili's Grill & Bar #1423,9900 S IH,78748,30.1532581,-97.838136,2021-06-15,Routine Inspection,83
11905686,Sodalis Austin,7017 MANCHACA RD,78745,30.20045802,-97.806537029,2022-09-19,Routine Inspection,93
12186636,PF- El Taquito,20007 FM 685 RD,78660,30.482028988,-97.584834014,2023-05-19,Routine Inspection,82
12186075,Brooklyn Pizzeria & Bar,2026 S LAMAR BLVD,78704,30.249217982,-97.76850297,2022-01-12,Routine Inspection,80
10159246,Korean Grill,10901 N LAMAR BLVD,78753,30.377730997,-97.686110035,2022-08-10,Routine Inspection,93
11757980,TSO Chinese Delivery,3909 N IH,78722,30.287375,-97.71643,2022-05-31,Routine Inspection,95
12393133,Domino's,2407 S CONGRESS AVE,78704,30.237862012,-97.753394003,2023-08-17,Routine Inspection,95
12392375,Beer Geek,2051 W FM 1626 RD,78652,30.137364781,-97.850272598,2023-01-13,Routine Inspection,93
2802940,El Pollo Rico #1,9435 N IH,78753,30.36197,-97.68607,2022-10-25,Routine Inspection,82
2803809,Mi Tiendita,1725 OHLEN RD,78757,30.362669011,-97.718485975,2023-08-16,Routine Inspection,86
11584275,Joe Lee Johnson Elem.,2800 SAULS DR,78728,30.456730016,-97.681279964,2023-03-20,Routine Inspection,100
10131172,Perry's Steakhouse & Grill,114 W 7TH ST,78701,30.269617983,-97.743317027,2022-04-06,Routine Inspection,80
2801690,Maudie's North Lamar,10205 N LAMAR BLVD,78753,30.371564012,-97.691392981,2023-07-06,Routine Inspection,95
12395055,COTA - SS Pizza Turn 1,9201 CIRCUIT OF THE AMERICAS BLVD,78617,30.133811999,-97.64133701,2022-03-25,Routine Inspection,91
11574254,K Bop,2002 GUADALUPE ST,78705,30.282893996,-97.742328969,2022-03-01,Routine Inspection,58
12185722,LW - Double Dave's,3100 S FM 620 RD,78738,30.333321057,-97.968423542,2023-01-05,Routine Inspection,97
2802445,Bill Miller's Bar-B-Q,136 W SLAUGHTER LN,78748,30.16769798,-97.789916973,2023-09-25,Routine Inspection,93
10801551,Bob's Steak and Chop House,301 LAVACA ST,78701,30.266143014,-97.745892032,2021-07-15,Routine Inspection,76
12395972,Torchy's Tacos,8601 S CONGRESS AVE,78745,30.172722009,-97.784920017,2022-09-22,Routine Inspection,97
11809319,OOB - Tapioca House,1906 GUADALUPE ST,78705,30.282521001,-97.742362999,2021-03-17,Routine Inspection,74
12397318,EveryBuddy Eatz LLC,5610 N IH,78757,30.3626016,-97.7326711,2023-01-12,Routine Inspection,96
11522498,"Line ATX Restaurant, The",111 E CESAR CHAVEZ ST,78701,30.262764017,-97.743926979,2022-11-10,Routine Inspection,82
11785125,Honest Mary's,9828 GREAT HILLS TRL,78759,30.39543102,-97.74829504,2022-09-26,Routine Inspection,90
11626719,Grand Oriental Express Co. Ltd,7517 CAMERON RD,78752,30.329366997,-97.688871034,2023-11-30,Routine Inspection,79
2800461,Barbara Jordan Elem School,6711 JOHNNY MORRIS RD,78724,30.300896019,-97.64679497,2021-04-01,Routine Inspection,100
11659764,LW - Primrose School of Lakeway,601 S FM 620 RD,78734,30.37070906,-97.948196935,2023-01-04,Routine Inspection,100
2800884,Sam's Club #6453 Cafe,9700 N CAPITAL OF TEXAS HWY,78759,30.391690009,-97.742354031,2021-02-03,Routine Inspection,97
12397672,BC - Cost Plus World Market,12700 SHOPS PKWY,78738,30.305697005,-97.940019005,2023-05-25,Routine Inspection,99
10323264,Barnison Catering,2614 EXPOSITION BLVD,78703,30.302030007,-97.765573998,2022-04-27,Routine Inspection,90
